[
  {
    "name": "E-lastic",
    "address": "23 с2",
    "city": "Москва",
    "okrug": "ЦАО",
    "district": "Арбат",
    "region": null,
    "chainName": "OpenStreetMap",
    "latitude": 55.7531903,
    "longitude": 37.5897197,
    "externalProvider": "other",
    "externalId": "osm-n-4476870000"
  },
  {
    "name": "Ньюфит Арбат",
    "address": "Ньюфит Арбат (точка из OSM)",
    "city": "Москва",
    "okrug": "ЦАО",
    "district": "Арбат",
    "region": null,
    "chainName": "OpenStreetMap",
    "latitude": 55.7484337,
    "longitude": 37.5947164,
    "externalProvider": "other",
    "externalId": "osm-n-4950376553"
  },
  {
    "name": "Express-Fit",
    "address": "Express-Fit (точка из OSM)",
    "city": "Москва",
    "okrug": "ЦАО",
    "district": "Арбат",
    "region": null,
    "chainName": "OpenStreetMap",
    "latitude": 55.7493451,
    "longitude": 37.5850975,
    "externalProvider": "other",
    "externalId": "osm-n-5322383106"
  },
  {
    "name": "World Class",
    "address": "World Class (точка из OSM)",
    "city": "Москва",
    "okrug": "ЦАО",
    "district": "Арбат",
    "region": null,
    "chainName": "OpenStreetMap",
    "latitude": 55.7541611,
    "longitude": 37.6093434,
    "externalProvider": "other",
    "externalId": "osm-n-5518182497"
  },
  {
    "name": "Спортклуб \"На Арбате\"",
    "address": "Спортклуб \"На Арбате\" (точка из OSM)",
    "city": "Москва",
    "okrug": "ЦАО",
    "district": "Арбат",
    "region": null,
    "chainName": "OpenStreetMap",
    "latitude": 55.7471765,
    "longitude": 37.5870435,
    "externalProvider": "other",
    "externalId": "osm-n-5967509282"
  },
  {
    "name": "Intuition",
    "address": "Романов переулок, 3/6, Москва",
    "city": "Москва",
    "okrug": "ЦАО",
    "district": "Арбат",
    "region": null,
    "chainName": "OpenStreetMap",
    "latitude": 55.7540507,
    "longitude": 37.6068595,
    "externalProvider": "other",
    "externalId": "osm-n-6418209316"
  },
  {
    "name": "Суперпозиция",
    "address": "Суперпозиция (точка из OSM)",
    "city": "Москва",
    "okrug": "ЦАО",
    "district": "Арбат",
    "region": null,
    "chainName": "OpenStreetMap",
    "latitude": 55.7520019,
    "longitude": 37.5825012,
    "externalProvider": "other",
    "externalId": "osm-n-6685476244"
  },
  {
    "name": "Zamute",
    "address": "Zamute (точка из OSM)",
    "city": "Москва",
    "okrug": "ЦАО",
    "district": "Арбат",
    "region": null,
    "chainName": "OpenStreetMap",
    "latitude": 55.75314,
    "longitude": 37.5860243,
    "externalProvider": "other",
    "externalId": "osm-n-6932369385"
  },
  {
    "name": "Fit-n-Go",
    "address": "Fit-n-Go (точка из OSM)",
    "city": "Москва",
    "okrug": "ЦАО",
    "district": "Арбат",
    "region": null,
    "chainName": "OpenStreetMap",
    "latitude": 55.7502984,
    "longitude": 37.5848682,
    "externalProvider": "other",
    "externalId": "osm-n-7042443395"
  },
  {
    "name": "World Class",
    "address": "World Class (точка из OSM)",
    "city": "Москва",
    "okrug": "ЦАО",
    "district": "Арбат",
    "region": null,
    "chainName": "OpenStreetMap",
    "latitude": 55.7476703,
    "longitude": 37.5812633,
    "externalProvider": "other",
    "externalId": "osm-n-7165875163"
  },
  {
    "name": "Секция",
    "address": "Секция (точка из OSM)",
    "city": "Москва",
    "okrug": "ЦАО",
    "district": "Арбат",
    "region": null,
    "chainName": "OpenStreetMap",
    "latitude": 55.7501444,
    "longitude": 37.5783102,
    "externalProvider": "other",
    "externalId": "osm-n-10722897834"
  },
  {
    "name": "Reboot",
    "address": "Reboot (точка из OSM)",
    "city": "Москва",
    "okrug": "ЦАО",
    "district": "Арбат",
    "region": null,
    "chainName": "OpenStreetMap",
    "latitude": 55.7531838,
    "longitude": 37.6098275,
    "externalProvider": "other",
    "externalId": "osm-n-11304366470"
  },
  {
    "name": "Go boxing",
    "address": "Go boxing (точка из OSM)",
    "city": "Москва",
    "okrug": "ЦАО",
    "district": "Арбат",
    "region": null,
    "chainName": "OpenStreetMap",
    "latitude": 55.7536819,
    "longitude": 37.5883819,
    "externalProvider": "other",
    "externalId": "osm-n-12541978096"
  },
  {
    "name": "Kultura. Fit",
    "address": "улица Арбат, 6/2",
    "city": "Москва",
    "okrug": "ЦАО",
    "district": "Арбат",
    "region": null,
    "chainName": "OpenStreetMap",
    "latitude": 55.7518288,
    "longitude": 37.5972233,
    "externalProvider": "other",
    "externalId": "osm-n-13104157601"
  },
  {
    "name": "DDX Fitness",
    "address": "DDX Fitness (точка из OSM)",
    "city": "Москва",
    "okrug": "ЦАО",
    "district": "Арбат",
    "region": null,
    "chainName": "OpenStreetMap",
    "latitude": 55.7521909,
    "longitude": 37.5955725,
    "externalProvider": "other",
    "externalId": "osm-n-13359516708"
  },
  {
    "name": "ReStart",
    "address": "ReStart (точка из OSM)",
    "city": "Москва",
    "okrug": "ЦАО",
    "district": "Басманный",
    "region": null,
    "chainName": "OpenStreetMap",
    "latitude": 55.7737654,
    "longitude": 37.6713995,
    "externalProvider": "other",
    "externalId": "osm-n-1142037534"
  },
  {
    "name": "Sculpt",
    "address": "Sculpt (точка из OSM)",
    "city": "Москва",
    "okrug": "ЦАО",
    "district": "Басманный",
    "region": null,
    "chainName": "OpenStreetMap",
    "latitude": 55.7617603,
    "longitude": 37.6402139,
    "externalProvider": "other",
    "externalId": "osm-n-2428194688"
  },
  {
    "name": "Fit Fashion",
    "address": "Fit Fashion (точка из OSM)",
    "city": "Москва",
    "okrug": "ЦАО",
    "district": "Басманный",
    "region": null,
    "chainName": "OpenStreetMap",
    "latitude": 55.761013,
    "longitude": 37.681794,
    "externalProvider": "other",
    "externalId": "osm-n-3719242625"
  },
  {
    "name": "X-Fit Чистые пруды",
    "address": "улица Жуковского, 14 с1, Москва",
    "city": "Москва",
    "okrug": "ЦАО",
    "district": "Басманный",
    "region": null,
    "chainName": "OpenStreetMap",
    "latitude": 55.7623253,
    "longitude": 37.6469231,
    "externalProvider": "other",
    "externalId": "osm-n-4332637893"
  },
  {
    "name": "S-Sport",
    "address": "S-Sport (точка из OSM)",
    "city": "Москва",
    "okrug": "ЦАО",
    "district": "Басманный",
    "region": null,
    "chainName": "OpenStreetMap",
    "latitude": 55.7612481,
    "longitude": 37.6689651,
    "externalProvider": "other",
    "externalId": "osm-n-4598533832"
  },
  {
    "name": "Тонус",
    "address": "Тонус (точка из OSM)",
    "city": "Москва",
    "okrug": "ЦАО",
    "district": "Басманный",
    "region": null,
    "chainName": "OpenStreetMap",
    "latitude": 55.7665853,
    "longitude": 37.6630573,
    "externalProvider": "other",
    "externalId": "osm-n-4924727710"
  },
  {
    "name": "Mind Body Studio",
    "address": "Mind Body Studio (точка из OSM)",
    "city": "Москва",
    "okrug": "ЦАО",
    "district": "Басманный",
    "region": null,
    "chainName": "OpenStreetMap",
    "latitude": 55.7652934,
    "longitude": 37.6474198,
    "externalProvider": "other",
    "externalId": "osm-n-5058629823"
  },
  {
    "name": "EMS Fit X Body",
    "address": "EMS Fit X Body (точка из OSM)",
    "city": "Москва",
    "okrug": "ЦАО",
    "district": "Басманный",
    "region": null,
    "chainName": "OpenStreetMap",
    "latitude": 55.7588559,
    "longitude": 37.6394472,
    "externalProvider": "other",
    "externalId": "osm-n-5375508321"
  },
  {
    "name": "Fit-n-Go",
    "address": "Fit-n-Go (точка из OSM)",
    "city": "Москва",
    "okrug": "ЦАО",
    "district": "Басманный",
    "region": null,
    "chainName": "OpenStreetMap",
    "latitude": 55.7561021,
    "longitude": 37.6556075,
    "externalProvider": "other",
    "externalId": "osm-n-5955465346"
  },
  {
    "name": "Activum Style",
    "address": "Activum Style (точка из OSM)",
    "city": "Москва",
    "okrug": "ЦАО",
    "district": "Басманный",
    "region": null,
    "chainName": "OpenStreetMap",
    "latitude": 55.7628731,
    "longitude": 37.6369031,
    "externalProvider": "other",
    "externalId": "osm-n-6225567568"
  },
  {
    "name": "Barre Addict",
    "address": "Barre Addict (точка из OSM)",
    "city": "Москва",
    "okrug": "ЦАО",
    "district": "Басманный",
    "region": null,
    "chainName": "OpenStreetMap",
    "latitude": 55.7620733,
    "longitude": 37.6375213,
    "externalProvider": "other",
    "externalId": "osm-n-6225900459"
  },
  {
    "name": "World Class",
    "address": "World Class (точка из OSM)",
    "city": "Москва",
    "okrug": "ЦАО",
    "district": "Басманный",
    "region": null,
    "chainName": "OpenStreetMap",
    "latitude": 55.7618403,
    "longitude": 37.6582608,
    "externalProvider": "other",
    "externalId": "osm-n-7165875162"
  },
  {
    "name": "UFC GYM Атриум",
    "address": "UFC GYM Атриум (точка из OSM)",
    "city": "Москва",
    "okrug": "ЦАО",
    "district": "Басманный",
    "region": null,
    "chainName": "OpenStreetMap",
    "latitude": 55.7578885,
    "longitude": 37.6592492,
    "externalProvider": "other",
    "externalId": "osm-n-7942478142"
  },
  {
    "name": "Jin Studio",
    "address": "Jin Studio (точка из OSM)",
    "city": "Москва",
    "okrug": "ЦАО",
    "district": "Басманный",
    "region": null,
    "chainName": "OpenStreetMap",
    "latitude": 55.7806925,
    "longitude": 37.6968491,
    "externalProvider": "other",
    "externalId": "osm-n-8752581947"
  },
  {
    "name": "Lady Stretch",
    "address": "Lady Stretch (точка из OSM)",
    "city": "Москва",
    "okrug": "ЦАО",
    "district": "Басманный",
    "region": null,
    "chainName": "OpenStreetMap",
    "latitude": 55.778986,
    "longitude": 37.7012313,
    "externalProvider": "other",
    "externalId": "osm-n-11459458179"
  },
  {
    "name": "just fit",
    "address": "just fit (точка из OSM)",
    "city": "Москва",
    "okrug": "ЦАО",
    "district": "Басманный",
    "region": null,
    "chainName": "OpenStreetMap",
    "latitude": 55.7599266,
    "longitude": 37.6642152,
    "externalProvider": "other",
    "externalId": "osm-n-12812340276"
  },
  {
    "name": "Оранж Фитнес",
    "address": "Оранж Фитнес (точка из OSM)",
    "city": "Москва",
    "okrug": "ЦАО",
    "district": "Замоскворечье",
    "region": null,
    "chainName": "OpenStreetMap",
    "latitude": 55.7244167,
    "longitude": 37.6425609,
    "externalProvider": "other",
    "externalId": "osm-n-3057363796"
  },
  {
    "name": "ЙогаМания",
    "address": "ЙогаМания (точка из OSM)",
    "city": "Москва",
    "okrug": "ЦАО",
    "district": "Замоскворечье",
    "region": null,
    "chainName": "OpenStreetMap",
    "latitude": 55.7279545,
    "longitude": 37.6243098,
    "externalProvider": "other",
    "externalId": "osm-n-4391626989"
  },
  {
    "name": "Йога-Практика",
    "address": "Большая Татарская улица, 7 к3",
    "city": "Москва",
    "okrug": "ЦАО",
    "district": "Замоскворечье",
    "region": null,
    "chainName": "OpenStreetMap",
    "latitude": 55.7419199,
    "longitude": 37.6354973,
    "externalProvider": "other",
    "externalId": "osm-n-4585067898"
  },
  {
    "name": "Sunny Gym",
    "address": "Sunny Gym (точка из OSM)",
    "city": "Москва",
    "okrug": "ЦАО",
    "district": "Замоскворечье",
    "region": null,
    "chainName": "OpenStreetMap",
    "latitude": 55.7364565,
    "longitude": 37.6451158,
    "externalProvider": "other",
    "externalId": "osm-n-5134985421"
  },
  {
    "name": "Reboot",
    "address": "Reboot (точка из OSM)",
    "city": "Москва",
    "okrug": "ЦАО",
    "district": "Замоскворечье",
    "region": null,
    "chainName": "OpenStreetMap",
    "latitude": 55.7313532,
    "longitude": 37.6450472,
    "externalProvider": "other",
    "externalId": "osm-n-5466776795"
  },
  {
    "name": "Power Style",
    "address": "Power Style (точка из OSM)",
    "city": "Москва",
    "okrug": "ЦАО",
    "district": "Замоскворечье",
    "region": null,
    "chainName": "OpenStreetMap",
    "latitude": 55.72242,
    "longitude": 37.6285168,
    "externalProvider": "other",
    "externalId": "osm-n-5982976329"
  },
  {
    "name": "WLB",
    "address": "Овчинниковская набережная, 6 с3, Москва",
    "city": "Москва",
    "okrug": "ЦАО",
    "district": "Замоскворечье",
    "region": null,
    "chainName": "OpenStreetMap",
    "latitude": 55.7457861,
    "longitude": 37.6279566,
    "externalProvider": "other",
    "externalId": "osm-n-6183536887"
  },
  {
    "name": "TopStretching",
    "address": "TopStretching (точка из OSM)",
    "city": "Москва",
    "okrug": "ЦАО",
    "district": "Замоскворечье",
    "region": null,
    "chainName": "OpenStreetMap",
    "latitude": 55.7437358,
    "longitude": 37.6284353,
    "externalProvider": "other",
    "externalId": "osm-n-6449522001"
  },
  {
    "name": "Republika",
    "address": "Republika (точка из OSM)",
    "city": "Москва",
    "okrug": "ЦАО",
    "district": "Замоскворечье",
    "region": null,
    "chainName": "OpenStreetMap",
    "latitude": 55.73072,
    "longitude": 37.6280152,
    "externalProvider": "other",
    "externalId": "osm-n-6777729486"
  },
  {
    "name": "JustFit Exclusive Club",
    "address": "JustFit Exclusive Club (точка из OSM)",
    "city": "Москва",
    "okrug": "ЦАО",
    "district": "Замоскворечье",
    "region": null,
    "chainName": "OpenStreetMap",
    "latitude": 55.7276395,
    "longitude": 37.6442228,
    "externalProvider": "other",
    "externalId": "osm-n-7942478165"
  },
  {
    "name": "Party fitness",
    "address": "Party fitness (точка из OSM)",
    "city": "Москва",
    "okrug": "ЦАО",
    "district": "Замоскворечье",
    "region": null,
    "chainName": "OpenStreetMap",
    "latitude": 55.740588,
    "longitude": 37.6356738,
    "externalProvider": "other",
    "externalId": "osm-n-9696959117"
  },
  {
    "name": "Ddx",
    "address": "Ddx (точка из OSM)",
    "city": "Москва",
    "okrug": "ЦАО",
    "district": "Замоскворечье",
    "region": null,
    "chainName": "OpenStreetMap",
    "latitude": 55.7442287,
    "longitude": 37.6303518,
    "externalProvider": "other",
    "externalId": "osm-n-11138735101"
  },
  {
    "name": "L.a.b space",
    "address": "L.a.b space (точка из OSM)",
    "city": "Москва",
    "okrug": "ЦАО",
    "district": "Замоскворечье",
    "region": null,
    "chainName": "OpenStreetMap",
    "latitude": 55.7466759,
    "longitude": 37.6286316,
    "externalProvider": "other",
    "externalId": "osm-n-11482403565"
  },
  {
    "name": "Art of Pilates",
    "address": "Art of Pilates (точка из OSM)",
    "city": "Москва",
    "okrug": "ЦАО",
    "district": "Замоскворечье",
    "region": null,
    "chainName": "OpenStreetMap",
    "latitude": 55.7377413,
    "longitude": 37.6398336,
    "externalProvider": "other",
    "externalId": "osm-n-13564418141"
  },
  {
    "name": "Ньюфит Комсомольская",
    "address": "Ньюфит Комсомольская (точка из OSM)",
    "city": "Москва",
    "okrug": "ЦАО",
    "district": "Красносельский",
    "region": null,
    "chainName": "OpenStreetMap",
    "latitude": 55.7721889,
    "longitude": 37.6620407,
    "externalProvider": "other",
    "externalId": "osm-n-4948359021"
  },
  {
    "name": "Авангард",
    "address": "Авангард (точка из OSM)",
    "city": "Москва",
    "okrug": "ЦАО",
    "district": "Красносельский",
    "region": null,
    "chainName": "OpenStreetMap",
    "latitude": 55.7698036,
    "longitude": 37.6404168,
    "externalProvider": "other",
    "externalId": "osm-n-8677638974"
  },
  {
    "name": "Фитнес Практика",
    "address": "Фитнес Практика (точка из OSM)",
    "city": "Москва",
    "okrug": "ЦАО",
    "district": "Красносельский",
    "region": null,
    "chainName": "OpenStreetMap",
    "latitude": 55.7773439,
    "longitude": 37.6492882,
    "externalProvider": "other",
    "externalId": "osm-n-9120223450"
  },
  {
    "name": "СССР",
    "address": "СССР (точка из OSM)",
    "city": "Москва",
    "okrug": "ЦАО",
    "district": "Красносельский",
    "region": null,
    "chainName": "OpenStreetMap",
    "latitude": 55.7819038,
    "longitude": 37.6658856,
    "externalProvider": "other",
    "externalId": "osm-n-12238139367"
  },
  {
    "name": "Reshape",
    "address": "Reshape (точка из OSM)",
    "city": "Москва",
    "okrug": "ЦАО",
    "district": "Красносельский",
    "region": null,
    "chainName": "OpenStreetMap",
    "latitude": 55.7679093,
    "longitude": 37.6320268,
    "externalProvider": "other",
    "externalId": "osm-n-12472823959"
  },
  {
    "name": "Византий",
    "address": "Византий (точка из OSM)",
    "city": "Москва",
    "okrug": "ЦАО",
    "district": "Мещанский",
    "region": null,
    "chainName": "OpenStreetMap",
    "latitude": 55.7897884,
    "longitude": 37.6311659,
    "externalProvider": "other",
    "externalId": "osm-n-4343689890"
  },
  {
    "name": "5fit",
    "address": "5fit (точка из OSM)",
    "city": "Москва",
    "okrug": "ЦАО",
    "district": "Мещанский",
    "region": null,
    "chainName": "OpenStreetMap",
    "latitude": 55.7670953,
    "longitude": 37.6256472,
    "externalProvider": "other",
    "externalId": "osm-n-5515177542"
  },
  {
    "name": "Kometa.Black",
    "address": "Kometa.Black (точка из OSM)",
    "city": "Москва",
    "okrug": "ЦАО",
    "district": "Мещанский",
    "region": null,
    "chainName": "OpenStreetMap",
    "latitude": 55.7659186,
    "longitude": 37.6212647,
    "externalProvider": "other",
    "externalId": "osm-n-9779357301"
  },
  {
    "name": "Pure mind",
    "address": "Pure mind (точка из OSM)",
    "city": "Москва",
    "okrug": "ЦАО",
    "district": "Мещанский",
    "region": null,
    "chainName": "OpenStreetMap",
    "latitude": 55.7694574,
    "longitude": 37.6279472,
    "externalProvider": "other",
    "externalId": "osm-n-12518113074"
  },
  {
    "name": "Jump",
    "address": "улица Красная Пресня, 4 к1",
    "city": "Москва",
    "okrug": "ЦАО",
    "district": "Пресненский",
    "region": null,
    "chainName": "OpenStreetMap",
    "latitude": 55.7627711,
    "longitude": 37.5701497,
    "externalProvider": "other",
    "externalId": "osm-n-4740088622"
  },
  {
    "name": "Старт-7",
    "address": "Старт-7 (точка из OSM)",
    "city": "Москва",
    "okrug": "ЦАО",
    "district": "Пресненский",
    "region": null,
    "chainName": "OpenStreetMap",
    "latitude": 55.7672838,
    "longitude": 37.5792323,
    "externalProvider": "other",
    "externalId": "osm-n-4740088623"
  },
  {
    "name": "Encore Fitness",
    "address": "Encore Fitness (точка из OSM)",
    "city": "Москва",
    "okrug": "ЦАО",
    "district": "Пресненский",
    "region": null,
    "chainName": "OpenStreetMap",
    "latitude": 55.7494834,
    "longitude": 37.5342831,
    "externalProvider": "other",
    "externalId": "osm-n-4931355621"
  },
  {
    "name": "Fit x Body Zoologicheskaya",
    "address": "Fit x Body Zoologicheskaya (точка из OSM)",
    "city": "Москва",
    "okrug": "ЦАО",
    "district": "Пресненский",
    "region": null,
    "chainName": "OpenStreetMap",
    "latitude": 55.7653262,
    "longitude": 37.5807791,
    "externalProvider": "other",
    "externalId": "osm-n-5230086722"
  },
  {
    "name": "Smart Fits",
    "address": "Smart Fits (точка из OSM)",
    "city": "Москва",
    "okrug": "ЦАО",
    "district": "Пресненский",
    "region": null,
    "chainName": "OpenStreetMap",
    "latitude": 55.755718,
    "longitude": 37.5963977,
    "externalProvider": "other",
    "externalId": "osm-n-5241764087"
  },
  {
    "name": "Boom Cycle",
    "address": "Boom Cycle (точка из OSM)",
    "city": "Москва",
    "okrug": "ЦАО",
    "district": "Пресненский",
    "region": null,
    "chainName": "OpenStreetMap",
    "latitude": 55.7646002,
    "longitude": 37.5951612,
    "externalProvider": "other",
    "externalId": "osm-n-5294751843"
  },
  {
    "name": "Тонус-Клуб",
    "address": "Шмитовский проезд, 16 с2, Москва",
    "city": "Москва",
    "okrug": "ЦАО",
    "district": "Пресненский",
    "region": null,
    "chainName": "OpenStreetMap",
    "latitude": 55.7580341,
    "longitude": 37.5471683,
    "externalProvider": "other",
    "externalId": "osm-n-5299864910"
  },
  {
    "name": "С.С.С.Р",
    "address": "С.С.С.Р (точка из OSM)",
    "city": "Москва",
    "okrug": "ЦАО",
    "district": "Пресненский",
    "region": null,
    "chainName": "OpenStreetMap",
    "latitude": 55.7587339,
    "longitude": 37.5462711,
    "externalProvider": "other",
    "externalId": "osm-n-5632574822"
  },
  {
    "name": "Snegiri",
    "address": "Snegiri (точка из OSM)",
    "city": "Москва",
    "okrug": "ЦАО",
    "district": "Пресненский",
    "region": null,
    "chainName": "OpenStreetMap",
    "latitude": 55.7615436,
    "longitude": 37.5872286,
    "externalProvider": "other",
    "externalId": "osm-n-5972686348"
  },
  {
    "name": "Elastic",
    "address": "Elastic (точка из OSM)",
    "city": "Москва",
    "okrug": "ЦАО",
    "district": "Пресненский",
    "region": null,
    "chainName": "OpenStreetMap",
    "latitude": 55.7569919,
    "longitude": 37.5647369,
    "externalProvider": "other",
    "externalId": "osm-n-6178469428"
  },
  {
    "name": "World Class",
    "address": "улица Сергея Макеева, 9 с5, Москва",
    "city": "Москва",
    "okrug": "ЦАО",
    "district": "Пресненский",
    "region": null,
    "chainName": "OpenStreetMap",
    "latitude": 55.7608339,
    "longitude": 37.5489726,
    "externalProvider": "other",
    "externalId": "osm-n-6328020528"
  },
  {
    "name": "World Class",
    "address": "Пресненская набережная, 8 с1, Москва",
    "city": "Москва",
    "okrug": "ЦАО",
    "district": "Пресненский",
    "region": null,
    "chainName": "OpenStreetMap",
    "latitude": 55.7468795,
    "longitude": 37.5395249,
    "externalProvider": "other",
    "externalId": "osm-n-6342052558"
  },
  {
    "name": "Top Pilates",
    "address": "Top Pilates (точка из OSM)",
    "city": "Москва",
    "okrug": "ЦАО",
    "district": "Пресненский",
    "region": null,
    "chainName": "OpenStreetMap",
    "latitude": 55.7575865,
    "longitude": 37.6068181,
    "externalProvider": "other",
    "externalId": "osm-n-6347418486"
  },
  {
    "name": "Sculpt",
    "address": "Sculpt (точка из OSM)",
    "city": "Москва",
    "okrug": "ЦАО",
    "district": "Пресненский",
    "region": null,
    "chainName": "OpenStreetMap",
    "latitude": 55.7678229,
    "longitude": 37.5883377,
    "externalProvider": "other",
    "externalId": "osm-n-6443397869"
  },
  {
    "name": "Здоровье и спорт",
    "address": "Здоровье и спорт (точка из OSM)",
    "city": "Москва",
    "okrug": "ЦАО",
    "district": "Пресненский",
    "region": null,
    "chainName": "OpenStreetMap",
    "latitude": 55.7566191,
    "longitude": 37.6062495,
    "externalProvider": "other",
    "externalId": "osm-n-6883694879"
  },
  {
    "name": "World Class",
    "address": "улица Климашкина, 17 с2, Москва",
    "city": "Москва",
    "okrug": "ЦАО",
    "district": "Пресненский",
    "region": null,
    "chainName": "OpenStreetMap",
    "latitude": 55.7674981,
    "longitude": 37.5681471,
    "externalProvider": "other",
    "externalId": "osm-n-7281715642"
  },
  {
    "name": "World Class",
    "address": "World Class (точка из OSM)",
    "city": "Москва",
    "okrug": "ЦАО",
    "district": "Пресненский",
    "region": null,
    "chainName": "OpenStreetMap",
    "latitude": 55.7609157,
    "longitude": 37.5486906,
    "externalProvider": "other",
    "externalId": "osm-n-7942487111"
  },
  {
    "name": "Точка движения",
    "address": "Точка движения (точка из OSM)",
    "city": "Москва",
    "okrug": "ЦАО",
    "district": "Пресненский",
    "region": null,
    "chainName": "OpenStreetMap",
    "latitude": 55.7613927,
    "longitude": 37.569868,
    "externalProvider": "other",
    "externalId": "osm-n-8839210254"
  },
  {
    "name": "Crocus Fitness Neva Towers",
    "address": "1-й Красногвардейский проезд, 22 с2, Москва",
    "city": "Москва",
    "okrug": "ЦАО",
    "district": "Пресненский",
    "region": null,
    "chainName": "OpenStreetMap",
    "latitude": 55.7515696,
    "longitude": 37.5345878,
    "externalProvider": "other",
    "externalId": "osm-n-9918300095"
  },
  {
    "name": "Spirit Fitness",
    "address": "Spirit Fitness (точка из OSM)",
    "city": "Москва",
    "okrug": "ЦАО",
    "district": "Пресненский",
    "region": null,
    "chainName": "OpenStreetMap",
    "latitude": 55.7497538,
    "longitude": 37.5373927,
    "externalProvider": "other",
    "externalId": "osm-n-10046637116"
  },
  {
    "name": "Pilates Contrology",
    "address": "Pilates Contrology (точка из OSM)",
    "city": "Москва",
    "okrug": "ЦАО",
    "district": "Пресненский",
    "region": null,
    "chainName": "OpenStreetMap",
    "latitude": 55.7679953,
    "longitude": 37.5830122,
    "externalProvider": "other",
    "externalId": "osm-n-10094783717"
  },
  {
    "name": "Reboot",
    "address": "Reboot (точка из OSM)",
    "city": "Москва",
    "okrug": "ЦАО",
    "district": "Пресненский",
    "region": null,
    "chainName": "OpenStreetMap",
    "latitude": 55.7477343,
    "longitude": 37.5354498,
    "externalProvider": "other",
    "externalId": "osm-n-11304366469"
  },
  {
    "name": "L.a.b space",
    "address": "L.a.b space (точка из OSM)",
    "city": "Москва",
    "okrug": "ЦАО",
    "district": "Пресненский",
    "region": null,
    "chainName": "OpenStreetMap",
    "latitude": 55.7492137,
    "longitude": 37.5366249,
    "externalProvider": "other",
    "externalId": "osm-n-11482403567"
  },
  {
    "name": "Varyag",
    "address": "Varyag (точка из OSM)",
    "city": "Москва",
    "okrug": "ЦАО",
    "district": "Пресненский",
    "region": null,
    "chainName": "OpenStreetMap",
    "latitude": 55.761709,
    "longitude": 37.6048391,
    "externalProvider": "other",
    "externalId": "osm-n-13359463398"
  },
  {
    "name": "Smart Fitness",
    "address": "Smart Fitness (точка из OSM)",
    "city": "Москва",
    "okrug": "ЦАО",
    "district": "Пресненский",
    "region": null,
    "chainName": "OpenStreetMap",
    "latitude": 55.7674117,
    "longitude": 37.5550099,
    "externalProvider": "other",
    "externalId": "osm-n-13587404019"
  },
  {
    "name": "Классика",
    "address": "Классика (точка из OSM)",
    "city": "Москва",
    "okrug": "ЦАО",
    "district": "Таганский",
    "region": null,
    "chainName": "OpenStreetMap",
    "latitude": 55.7342332,
    "longitude": 37.6706232,
    "externalProvider": "other",
    "externalId": "osm-n-922268583"
  },
  {
    "name": "World Class",
    "address": "Николоямская улица, 36 с1, Москва",
    "city": "Москва",
    "okrug": "ЦАО",
    "district": "Таганский",
    "region": null,
    "chainName": "OpenStreetMap",
    "latitude": 55.7469874,
    "longitude": 37.6576676,
    "externalProvider": "other",
    "externalId": "osm-n-6342038145"
  },
  {
    "name": "Кенгуру",
    "address": "Кенгуру (точка из OSM)",
    "city": "Москва",
    "okrug": "ЦАО",
    "district": "Таганский",
    "region": null,
    "chainName": "OpenStreetMap",
    "latitude": 55.7371745,
    "longitude": 37.6891249,
    "externalProvider": "other",
    "externalId": "osm-n-6680114935"
  },
  {
    "name": "Fit-n-Go",
    "address": "Fit-n-Go (точка из OSM)",
    "city": "Москва",
    "okrug": "ЦАО",
    "district": "Таганский",
    "region": null,
    "chainName": "OpenStreetMap",
    "latitude": 55.7349383,
    "longitude": 37.6606977,
    "externalProvider": "other",
    "externalId": "osm-n-6720404428"
  },
  {
    "name": "Crocus Fitness",
    "address": "Crocus Fitness (точка из OSM)",
    "city": "Москва",
    "okrug": "ЦАО",
    "district": "Таганский",
    "region": null,
    "chainName": "OpenStreetMap",
    "latitude": 55.7534034,
    "longitude": 37.6569608,
    "externalProvider": "other",
    "externalId": "osm-n-6802180456"
  },
  {
    "name": "Beauty Gym",
    "address": "Beauty Gym (точка из OSM)",
    "city": "Москва",
    "okrug": "ЦАО",
    "district": "Таганский",
    "region": null,
    "chainName": "OpenStreetMap",
    "latitude": 55.7381745,
    "longitude": 37.6858319,
    "externalProvider": "other",
    "externalId": "osm-n-8540708401"
  },
  {
    "name": "Kick start gym",
    "address": "Kick start gym (точка из OSM)",
    "city": "Москва",
    "okrug": "ЦАО",
    "district": "Таганский",
    "region": null,
    "chainName": "OpenStreetMap",
    "latitude": 55.7479624,
    "longitude": 37.6779968,
    "externalProvider": "other",
    "externalId": "osm-n-9043594417"
  },
  {
    "name": "Spirit Fitness",
    "address": "Spirit Fitness (точка из OSM)",
    "city": "Москва",
    "okrug": "ЦАО",
    "district": "Таганский",
    "region": null,
    "chainName": "OpenStreetMap",
    "latitude": 55.741309,
    "longitude": 37.67405,
    "externalProvider": "other",
    "externalId": "osm-n-10046637113"
  },
  {
    "name": "Heavy Duty",
    "address": "Heavy Duty (точка из OSM)",
    "city": "Москва",
    "okrug": "ЦАО",
    "district": "Таганский",
    "region": null,
    "chainName": "OpenStreetMap",
    "latitude": 55.7391038,
    "longitude": 37.6679628,
    "externalProvider": "other",
    "externalId": "osm-n-13198084682"
  },
  {
    "name": "Счастье",
    "address": "Счастье (точка из OSM)",
    "city": "Москва",
    "okrug": "ЦАО",
    "district": "Таганский",
    "region": null,
    "chainName": "OpenStreetMap",
    "latitude": 55.7423246,
    "longitude": 37.6666992,
    "externalProvider": "other",
    "externalId": "osm-n-13227852867"
  },
  {
    "name": "Padma",
    "address": "Padma (точка из OSM)",
    "city": "Москва",
    "okrug": "ЦАО",
    "district": "Таганский",
    "region": null,
    "chainName": "OpenStreetMap",
    "latitude": 55.7397171,
    "longitude": 37.6482002,
    "externalProvider": "other",
    "externalId": "osm-n-13252176529"
  },
  {
    "name": "EMS",
    "address": "EMS (точка из OSM)",
    "city": "Москва",
    "okrug": "ЦАО",
    "district": "Таганский",
    "region": null,
    "chainName": "OpenStreetMap",
    "latitude": 55.7401327,
    "longitude": 37.6653107,
    "externalProvider": "other",
    "externalId": "osm-n-13300050569"
  },
  {
    "name": "Pro Тело Fitness",
    "address": "Pro Тело Fitness (точка из OSM)",
    "city": "Москва",
    "okrug": "ЦАО",
    "district": "Таганский",
    "region": null,
    "chainName": "OpenStreetMap",
    "latitude": 55.7352827,
    "longitude": 37.6560323,
    "externalProvider": "other",
    "externalId": "osm-n-13348254000"
  },
  {
    "name": "Rock the Cycle",
    "address": "Rock the Cycle (точка из OSM)",
    "city": "Москва",
    "okrug": "ЦАО",
    "district": "Тверской",
    "region": null,
    "chainName": "OpenStreetMap",
    "latitude": 55.7744865,
    "longitude": 37.5889247,
    "externalProvider": "other",
    "externalId": "osm-n-3070893087"
  },
  {
    "name": "World Class",
    "address": "World Class (точка из OSM)",
    "city": "Москва",
    "okrug": "ЦАО",
    "district": "Тверской",
    "region": null,
    "chainName": "OpenStreetMap",
    "latitude": 55.7743824,
    "longitude": 37.586159,
    "externalProvider": "other",
    "externalId": "osm-n-3423365500"
  },
  {
    "name": "Фитнес-студия персонального тренинга Оксаны Щежиной",
    "address": "Старопименовский переулок, 4 с2, Москва",
    "city": "Москва",
    "okrug": "ЦАО",
    "district": "Тверской",
    "region": null,
    "chainName": "OpenStreetMap",
    "latitude": 55.7686776,
    "longitude": 37.6010885,
    "externalProvider": "other",
    "externalId": "osm-n-4281242876"
  },
  {
    "name": "Les Trois Santes",
    "address": "Les Trois Santes (точка из OSM)",
    "city": "Москва",
    "okrug": "ЦАО",
    "district": "Тверской",
    "region": null,
    "chainName": "OpenStreetMap",
    "latitude": 55.7661088,
    "longitude": 37.611235,
    "externalProvider": "other",
    "externalId": "osm-n-4763136749"
  },
  {
    "name": "Fitneo",
    "address": "Fitneo (точка из OSM)",
    "city": "Москва",
    "okrug": "ЦАО",
    "district": "Тверской",
    "region": null,
    "chainName": "OpenStreetMap",
    "latitude": 55.763024,
    "longitude": 37.6138676,
    "externalProvider": "other",
    "externalId": "osm-n-4764559286"
  },
  {
    "name": "Bodies by design fitness",
    "address": "Bodies by design fitness (точка из OSM)",
    "city": "Москва",
    "okrug": "ЦАО",
    "district": "Тверской",
    "region": null,
    "chainName": "OpenStreetMap",
    "latitude": 55.7755044,
    "longitude": 37.6007003,
    "externalProvider": "other",
    "externalId": "osm-n-4891311021"
  },
  {
    "name": "Velobeat",
    "address": "Velobeat (точка из OSM)",
    "city": "Москва",
    "okrug": "ЦАО",
    "district": "Тверской",
    "region": null,
    "chainName": "OpenStreetMap",
    "latitude": 55.7749151,
    "longitude": 37.6025024,
    "externalProvider": "other",
    "externalId": "osm-n-5249589167"
  },
  {
    "name": "World Class",
    "address": "World Class (точка из OSM)",
    "city": "Москва",
    "okrug": "ЦАО",
    "district": "Тверской",
    "region": null,
    "chainName": "OpenStreetMap",
    "latitude": 55.7734276,
    "longitude": 37.6065927,
    "externalProvider": "other",
    "externalId": "osm-n-5863435086"
  },
  {
    "name": "Allo",
    "address": "Allo (точка из OSM)",
    "city": "Москва",
    "okrug": "ЦАО",
    "district": "Тверской",
    "region": null,
    "chainName": "OpenStreetMap",
    "latitude": 55.7777129,
    "longitude": 37.606831,
    "externalProvider": "other",
    "externalId": "osm-n-6086331987"
  },
  {
    "name": "X-Fit Столешников",
    "address": "улица Большая Дмитровка, 13, Москва",
    "city": "Москва",
    "okrug": "ЦАО",
    "district": "Тверской",
    "region": null,
    "chainName": "OpenStreetMap",
    "latitude": 55.7621842,
    "longitude": 37.6134378,
    "externalProvider": "other",
    "externalId": "osm-n-7914317420"
  },
  {
    "name": "World Class",
    "address": "World Class (точка из OSM)",
    "city": "Москва",
    "okrug": "ЦАО",
    "district": "Тверской",
    "region": null,
    "chainName": "OpenStreetMap",
    "latitude": 55.7741383,
    "longitude": 37.5864548,
    "externalProvider": "other",
    "externalId": "osm-n-7942476486"
  },
  {
    "name": "X-Fit Ленком",
    "address": "улица Малая Дмитровка, 6, Москва",
    "city": "Москва",
    "okrug": "ЦАО",
    "district": "Тверской",
    "region": null,
    "chainName": "OpenStreetMap",
    "latitude": 55.7679081,
    "longitude": 37.6065846,
    "externalProvider": "other",
    "externalId": "osm-n-7966361477"
  },
  {
    "name": "JustFit Exclusive Club",
    "address": "JustFit Exclusive Club (точка из OSM)",
    "city": "Москва",
    "okrug": "ЦАО",
    "district": "Тверской",
    "region": null,
    "chainName": "OpenStreetMap",
    "latitude": 55.786421,
    "longitude": 37.598412,
    "externalProvider": "other",
    "externalId": "osm-n-8154400387"
  },
  {
    "name": "MyFitlab",
    "address": "Страстной бульвар, 10 к1, Москва",
    "city": "Москва",
    "okrug": "ЦАО",
    "district": "Тверской",
    "region": null,
    "chainName": "OpenStreetMap",
    "latitude": 55.7662392,
    "longitude": 37.6113129,
    "externalProvider": "other",
    "externalId": "osm-n-9958963889"
  },
  {
    "name": "Биомедиация",
    "address": "Селезнёвская улица, 30 к1",
    "city": "Москва",
    "okrug": "ЦАО",
    "district": "Тверской",
    "region": null,
    "chainName": "OpenStreetMap",
    "latitude": 55.780526,
    "longitude": 37.6098364,
    "externalProvider": "other",
    "externalId": "osm-n-10139548355"
  },
  {
    "name": "Pro Trener",
    "address": "Pro Trener (точка из OSM)",
    "city": "Москва",
    "okrug": "ЦАО",
    "district": "Тверской",
    "region": null,
    "chainName": "OpenStreetMap",
    "latitude": 55.7673473,
    "longitude": 37.5976945,
    "externalProvider": "other",
    "externalId": "osm-n-11290965170"
  },
  {
    "name": "RefilSpace",
    "address": "Новослободская улица, 62, Москва",
    "city": "Москва",
    "okrug": "ЦАО",
    "district": "Тверской",
    "region": null,
    "chainName": "OpenStreetMap",
    "latitude": 55.7909329,
    "longitude": 37.5907294,
    "externalProvider": "other",
    "externalId": "osm-n-12422312232"
  },
  {
    "name": "BeFit",
    "address": "BeFit (точка из OSM)",
    "city": "Москва",
    "okrug": "ЦАО",
    "district": "Тверской",
    "region": null,
    "chainName": "OpenStreetMap",
    "latitude": 55.7684616,
    "longitude": 37.6144396,
    "externalProvider": "other",
    "externalId": "osm-n-12705696999"
  },
  {
    "name": "Dr. Loder",
    "address": "Dr. Loder (точка из OSM)",
    "city": "Москва",
    "okrug": "ЦАО",
    "district": "Хамовники",
    "region": null,
    "chainName": "OpenStreetMap",
    "latitude": 55.7401337,
    "longitude": 37.5980701,
    "externalProvider": "other",
    "externalId": "osm-n-1212056547"
  },
  {
    "name": "Анатомия",
    "address": "Анатомия (точка из OSM)",
    "city": "Москва",
    "okrug": "ЦАО",
    "district": "Хамовники",
    "region": null,
    "chainName": "OpenStreetMap",
    "latitude": 55.7226371,
    "longitude": 37.5603459,
    "externalProvider": "other",
    "externalId": "osm-n-5139988724"
  },
  {
    "name": "Golden mile",
    "address": "Golden mile (точка из OSM)",
    "city": "Москва",
    "okrug": "ЦАО",
    "district": "Хамовники",
    "region": null,
    "chainName": "OpenStreetMap",
    "latitude": 55.7369248,
    "longitude": 37.6003775,
    "externalProvider": "other",
    "externalId": "osm-n-5323864089"
  },
  {
    "name": "Дон-спорт",
    "address": "Дон-спорт (точка из OSM)",
    "city": "Москва",
    "okrug": "ЦАО",
    "district": "Хамовники",
    "region": null,
    "chainName": "OpenStreetMap",
    "latitude": 55.7296357,
    "longitude": 37.5705457,
    "externalProvider": "other",
    "externalId": "osm-n-5810386654"
  },
  {
    "name": "Pro Trener",
    "address": "Pro Trener (точка из OSM)",
    "city": "Москва",
    "okrug": "ЦАО",
    "district": "Хамовники",
    "region": null,
    "chainName": "OpenStreetMap",
    "latitude": 55.7428253,
    "longitude": 37.5986266,
    "externalProvider": "other",
    "externalId": "osm-n-6023226146"
  },
  {
    "name": "X-Fit Фьюжн",
    "address": "Усачёва улица, 2 с3, Москва",
    "city": "Москва",
    "okrug": "ЦАО",
    "district": "Хамовники",
    "region": null,
    "chainName": "OpenStreetMap",
    "latitude": 55.7303321,
    "longitude": 37.5727664,
    "externalProvider": "other",
    "externalId": "osm-n-7966663090"
  },
  {
    "name": "Crocus Fitness Лужники",
    "address": "Лужнецкая набережная, 24 с4, Москва",
    "city": "Москва",
    "okrug": "ЦАО",
    "district": "Хамовники",
    "region": null,
    "chainName": "OpenStreetMap",
    "latitude": 55.7131659,
    "longitude": 37.5585068,
    "externalProvider": "other",
    "externalId": "osm-n-9918375081"
  },
  {
    "name": "World Class Хамовники",
    "address": "World Class Хамовники (точка из OSM)",
    "city": "Москва",
    "okrug": "ЦАО",
    "district": "Хамовники",
    "region": null,
    "chainName": "OpenStreetMap",
    "latitude": 55.7263088,
    "longitude": 37.5721283,
    "externalProvider": "other",
    "externalId": "osm-n-10784381413"
  },
  {
    "name": "Slim Fit Club",
    "address": "Slim Fit Club (точка из OSM)",
    "city": "Москва",
    "okrug": "ЦАО",
    "district": "Хамовники",
    "region": null,
    "chainName": "OpenStreetMap",
    "latitude": 55.7257466,
    "longitude": 37.5455197,
    "externalProvider": "other",
    "externalId": "osm-n-11186214264"
  },
  {
    "name": "Reboot",
    "address": "Reboot (точка из OSM)",
    "city": "Москва",
    "okrug": "ЦАО",
    "district": "Хамовники",
    "region": null,
    "chainName": "OpenStreetMap",
    "latitude": 55.7361778,
    "longitude": 37.5861274,
    "externalProvider": "other",
    "externalId": "osm-n-11304357768"
  },
  {
    "name": "Kamelot",
    "address": "Kamelot (точка из OSM)",
    "city": "Москва",
    "okrug": "ЦАО",
    "district": "Хамовники",
    "region": null,
    "chainName": "OpenStreetMap",
    "latitude": 55.7252332,
    "longitude": 37.5768634,
    "externalProvider": "other",
    "externalId": "osm-n-12169542112"
  },
  {
    "name": "FitnessMania",
    "address": "FitnessMania (точка из OSM)",
    "city": "Москва",
    "okrug": "ЦАО",
    "district": "Хамовники",
    "region": null,
    "chainName": "OpenStreetMap",
    "latitude": 55.7270336,
    "longitude": 37.5805452,
    "externalProvider": "other",
    "externalId": "osm-n-12169542131"
  },
  {
    "name": "DD Stretching",
    "address": "DD Stretching (точка из OSM)",
    "city": "Москва",
    "okrug": "ЦАО",
    "district": "Хамовники",
    "region": null,
    "chainName": "OpenStreetMap",
    "latitude": 55.7452665,
    "longitude": 37.5940993,
    "externalProvider": "other",
    "externalId": "osm-n-13340857043"
  },
  {
    "name": "Физкультурно-оздоровительный комплекс",
    "address": "Физкультурно-оздоровительный комплекс (точка из OSM)",
    "city": "Москва",
    "okrug": "ЦАО",
    "district": "Якиманка",
    "region": null,
    "chainName": "OpenStreetMap",
    "latitude": 55.7320117,
    "longitude": 37.6075317,
    "externalProvider": "other",
    "externalId": "osm-n-4394658402"
  },
  {
    "name": "Сити Фитнес",
    "address": "Сити Фитнес (точка из OSM)",
    "city": "Москва",
    "okrug": "ЦАО",
    "district": "Якиманка",
    "region": null,
    "chainName": "OpenStreetMap",
    "latitude": 55.7282459,
    "longitude": 37.6163882,
    "externalProvider": "other",
    "externalId": "osm-n-6745453125"
  },
  {
    "name": "Crossfit&Fightclub",
    "address": "Crossfit&Fightclub (точка из OSM)",
    "city": "Москва",
    "okrug": "ЦАО",
    "district": "Якиманка",
    "region": null,
    "chainName": "OpenStreetMap",
    "latitude": 55.7413523,
    "longitude": 37.6090732,
    "externalProvider": "other",
    "externalId": "osm-n-6868568776"
  },
  {
    "name": "World Class",
    "address": "World Class (точка из OSM)",
    "city": "Москва",
    "okrug": "ЦАО",
    "district": "Якиманка",
    "region": null,
    "chainName": "OpenStreetMap",
    "latitude": 55.7315442,
    "longitude": 37.6163185,
    "externalProvider": "other",
    "externalId": "osm-n-7942487110"
  },
  {
    "name": "YOU",
    "address": "YOU (точка из OSM)",
    "city": "Москва",
    "okrug": "ЦАО",
    "district": "Якиманка",
    "region": null,
    "chainName": "OpenStreetMap",
    "latitude": 55.722561,
    "longitude": 37.603835,
    "externalProvider": "other",
    "externalId": "osm-n-8839209414"
  },
  {
    "name": "Brooklyn fitboxing",
    "address": "Brooklyn fitboxing (точка из OSM)",
    "city": "Москва",
    "okrug": "ЦАО",
    "district": "Якиманка",
    "region": null,
    "chainName": "OpenStreetMap",
    "latitude": 55.7213911,
    "longitude": 37.6117104,
    "externalProvider": "other",
    "externalId": "osm-n-9081791504"
  },
  {
    "name": "Manhattan Fitness",
    "address": "Калужская площадь, 1 к2",
    "city": "Москва",
    "okrug": "ЦАО",
    "district": "Якиманка",
    "region": null,
    "chainName": "OpenStreetMap",
    "latitude": 55.7278715,
    "longitude": 37.6138131,
    "externalProvider": "other",
    "externalId": "osm-n-9933988520"
  },
  {
    "name": "TerraSport Коперник",
    "address": "TerraSport Коперник (точка из OSM)",
    "city": "Москва",
    "okrug": "ЦАО",
    "district": "Якиманка",
    "region": null,
    "chainName": "OpenStreetMap",
    "latitude": 55.7383285,
    "longitude": 37.6138307,
    "externalProvider": "other",
    "externalId": "osm-n-9999587117"
  },
  {
    "name": "I am fitness studio",
    "address": "I am fitness studio (точка из OSM)",
    "city": "Москва",
    "okrug": "ЦАО",
    "district": "Якиманка",
    "region": null,
    "chainName": "OpenStreetMap",
    "latitude": 55.7220165,
    "longitude": 37.6093742,
    "externalProvider": "other",
    "externalId": "osm-n-11083589889"
  },
  {
    "name": "Ideal",
    "address": "Ideal (точка из OSM)",
    "city": "Москва",
    "okrug": "ЦАО",
    "district": "Якиманка",
    "region": null,
    "chainName": "OpenStreetMap",
    "latitude": 55.7213609,
    "longitude": 37.6129389,
    "externalProvider": "other",
    "externalId": "osm-n-11482410980"
  }
]